[
  {
    "displayName": "Australia Central",
    "geography": "Australia",
    "geographyGroup": "Asia Pacific",
    "latitude": -35.3075,
    "longitude": 149.1244,
    "pairedRegion": "Australia Central 2",
    "physicalLocation": "Canberra",
    "regionalDisplayName": "(Asia Pacific) Australia Central",
    "name": "australiacentral",
    "availabilityZoneCount": 0,
    "restricted": false,
    "yearOpen": 2018
  },
  {
    "displayName": "Australia Central 2",
    "geography": "Australia",
    "geographyGroup": "Asia Pacific",
    "latitude": -35.3075,
    "longitude": 149.1244,
    "pairedRegion": "Australia Central",
    "physicalLocation": "Canberra",
    "regionalDisplayName": "(Asia Pacific) Australia Central 2",
    "name": "australiacentral2",
    "availabilityZoneCount": 0,
    "restricted": true
  },
  {
    "displayName": "Australia East",
    "geography": "Australia",
    "geographyGroup": "Asia Pacific",
    "latitude": -33.86,
    "longitude": 151.2094,
    "pairedRegion": "Australia Southeast",
    "physicalLocation": "New South Wales",
    "regionalDisplayName": "(Asia Pacific) Australia East",
    "name": "australiaeast",
    "availabilityZoneCount": 3,
    "restricted": false,
    "yearOpen": 2014
  },
  {
    "displayName": "Australia Southeast",
    "geography": "Australia",
    "geographyGroup": "Asia Pacific",
    "latitude": -37.8136,
    "longitude": 144.9631,
    "pairedRegion": "Australia East",
    "physicalLocation": "Victoria",
    "regionalDisplayName": "(Asia Pacific) Australia Southeast",
    "name": "australiasoutheast",
    "availabilityZoneCount": 0,
    "restricted": false,
    "yearOpen": 2014
  },
  {
    "displayName": "Brazil South",
    "geography": "Brazil",
    "geographyGroup": "South America",
    "latitude": -23.55,
    "longitude": -46.633,
    "pairedRegion": "South Central US",
    "physicalLocation": "Sao Paulo State",
    "regionalDisplayName": "(South America) Brazil South",
    "name": "brazilsouth",
    "availabilityZoneCount": 3,
    "restricted": false,
    "yearOpen": 2014
  },
  {
    "displayName": "Brazil Southeast",
    "geography": "Brazil",
    "geographyGroup": "South America",
    "latitude": -22.90278,
    "longitude": -43.2075,
    "pairedRegion": "Brazil South",
    "physicalLocation": "Rio",
    "regionalDisplayName": "(South America) Brazil Southeast",
    "name": "brazilsoutheast",
    "availabilityZoneCount": 0,
    "restricted": true
  },
  {
    "displayName": "Canada Central",
    "geography": "Canada",
    "geographyGroup": "Canada",
    "latitude": 43.653,
    "longitude": -79.383,
    "pairedRegion": "Canada East",
    "physicalLocation": "Toronto",
    "regionalDisplayName": "(Canada) Canada Central",
    "name": "canadacentral",
    "availabilityZoneCount": 3,
    "restricted": false,
    "yearOpen": 2016
  },
  {
    "displayName": "Canada East",
    "geography": "Canada",
    "geographyGroup": "Canada",
    "latitude": 46.817,
    "longitude": -71.217,
    "pairedRegion": "Canada Central",
    "physicalLocation": "Quebec",
    "regionalDisplayName": "(Canada) Canada East",
    "name": "canadaeast",
    "availabilityZoneCount": 0,
    "restricted": false,
    "yearOpen": 2016
  },
  {
    "displayName": "Central India",
    "geography": "India",
    "geographyGroup": "Asia Pacific",
    "latitude": 18.5822,
    "longitude": 73.9197,
    "pairedRegion": "South India",
    "physicalLocation": "Pune",
    "regionalDisplayName": "(Asia Pacific) Central India",
    "name": "centralindia",
    "availabilityZoneCount": 3,
    "restricted": false,
    "yearOpen": 2015
  },
  {
    "displayName": "Central US",
    "geography": "United States",
    "geographyGroup": "US",
    "latitude": 41.5908,
    "longitude": -93.6208,
    "pairedRegion": "East US 2",
    "physicalLocation": "Iowa",
    "regionalDisplayName": "(US) Central US",
    "name": "centralus",
    "availabilityZoneCount": 3,
    "restricted": false,
    "yearOpen": 2014
  },
  {
    "displayName": "East Asia",
    "geography": "Asia Pacific",
    "geographyGroup": "Asia Pacific",
    "latitude": 22.267,
    "longitude": 114.188,
    "pairedRegion": "Southeast Asia",
    "physicalLocation": "Hong Kong",
    "regionalDisplayName": "(Asia Pacific) East Asia",
    "name": "eastasia",
    "availabilityZoneCount": 3,
    "restricted": false,
    "yearOpen": 2010
  },
  {
    "displayName": "East US",
    "geography": "United States",
    "geographyGroup": "US",
    "latitude": 37.3719,
    "longitude": -79.8164,
    "pairedRegion": "West US",
    "physicalLocation": "Virginia",
    "regionalDisplayName": "(US) East US",
    "name": "eastus",
    "availabilityZoneCount": 3,
    "restricted": false,
    "yearOpen": 2014
  },
  {
    "displayName": "East US 2",
    "geography": "United States",
    "geographyGroup": "US",
    "latitude": 36.6681,
    "longitude": -78.3889,
    "pairedRegion": "Central US",
    "physicalLocation": "Virginia",
    "regionalDisplayName": "(US) East US 2",
    "name": "eastus2",
    "availabilityZoneCount": 3,
    "restricted": false,
    "yearOpen": 2012
  },
  {
    "displayName": "France Central",
    "geography": "France",
    "geographyGroup": "Europe",
    "latitude": 46.3772,
    "longitude": 2.373,
    "pairedRegion": "France South",
    "physicalLocation": "Paris",
    "regionalDisplayName": "(Europe) France Central",
    "name": "francecentral",
    "availabilityZoneCount": 3,
    "restricted": false,
    "yearOpen": 2018
  },
  {
    "displayName": "France South",
    "geography": "France",
    "geographyGroup": "Europe",
    "latitude": 43.8345,
    "longitude": 2.1972,
    "pairedRegion": "France Central",
    "physicalLocation": "Marseille",
    "regionalDisplayName": "(Europe) France South",
    "name": "francesouth",
    "availabilityZoneCount": 0,
    "restricted": true
  },
  {
    "displayName": "Germany North",
    "geography": "Germany",
    "geographyGroup": "Europe",
    "latitude": 53.073635,
    "longitude": 8.806422,
    "pairedRegion": "Germany West Central",
    "physicalLocation": "Berlin",
    "regionalDisplayName": "(Europe) Germany North",
    "name": "germanynorth",
    "availabilityZoneCount": 0,
    "restricted": true
  },
  {
    "displayName": "Germany West Central",
    "geography": "Germany",
    "geographyGroup": "Europe",
    "latitude": 50.110924,
    "longitude": 8.682127,
    "pairedRegion": "Germany North",
    "physicalLocation": "Frankfurt",
    "regionalDisplayName": "(Europe) Germany West Central",
    "name": "germanywestcentral",
    "availabilityZoneCount": 3,
    "restricted": false,
    "yearOpen": 2019
  },
  {
    "displayName": "Israel Central",
    "geography": "Israel",
    "geographyGroup": "Middle East",
    "latitude": 31.2655698,
    "longitude": 33.4506633,
    "pairedRegion": null,
    "physicalLocation": "Israel",
    "regionalDisplayName": "(Middle East) Israel Central",
    "name": "israelcentral",
    "availabilityZoneCount": 3,
    "restricted": false,
    "yearOpen": 2023
  },
  {
    "displayName": "Italy North",
    "geography": "Italy",
    "geographyGroup": "Europe",
    "latitude": 45.46888,
    "longitude": 9.18109,
    "pairedRegion": null,
    "physicalLocation": "Milan",
    "regionalDisplayName": "(Europe) Italy North",
    "name": "italynorth",
    "availabilityZoneCount": 3,
    "restricted": false,
    "yearOpen": 2023
  },
  {
    "displayName": "Japan East",
    "geography": "Japan",
    "geographyGroup": "Asia Pacific",
    "latitude": 35.68,
    "longitude": 139.77,
    "pairedRegion": "Japan West",
    "physicalLocation": "Tokyo, Saitama",
    "regionalDisplayName": "(Asia Pacific) Japan East",
    "name": "japaneast",
    "availabilityZoneCount": 3,
    "restricted": false,
    "yearOpen": 2014
  },
  {
    "displayName": "Japan West",
    "geography": "Japan",
    "geographyGroup": "Asia Pacific",
    "latitude": 34.6939,
    "longitude": 135.5022,
    "pairedRegion": "Japan East",
    "physicalLocation": "Osaka",
    "regionalDisplayName": "(Asia Pacific) Japan West",
    "name": "japanwest",
    "availabilityZoneCount": 3,
    "restricted": false,
    "yearOpen": 2014
  },
  {
    "displayName": "Jio India Central",
    "geography": "India",
    "geographyGroup": "Asia Pacific",
    "latitude": 21.146633,
    "longitude": 79.08886,
    "pairedRegion": "Jio India West",
    "physicalLocation": "Nagpur",
    "regionalDisplayName": "(Asia Pacific) Jio India Central",
    "name": "jioindiacentral",
    "availabilityZoneCount": 0,
    "restricted": true
  },
  {
    "displayName": "Jio India West",
    "geography": "India",
    "geographyGroup": "Asia Pacific",
    "latitude": 22.470701,
    "longitude": 70.05773,
    "pairedRegion": "Jio India Central",
    "physicalLocation": "Jamnagar",
    "regionalDisplayName": "(Asia Pacific) Jio India West",
    "name": "jioindiawest",
    "availabilityZoneCount": 0,
    "restricted": true
  },
  {
    "displayName": "Korea Central",
    "geography": "Korea",
    "geographyGroup": "Asia Pacific",
    "latitude": 37.5665,
    "longitude": 126.978,
    "pairedRegion": "Korea South",
    "physicalLocation": "Seoul",
    "regionalDisplayName": "(Asia Pacific) Korea Central",
    "name": "koreacentral",
    "availabilityZoneCount": 3,
    "restricted": false,
    "yearOpen": 2017
  },
  {
    "displayName": "Korea South",
    "geography": "Korea",
    "geographyGroup": "Asia Pacific",
    "latitude": 35.1796,
    "longitude": 129.0756,
    "pairedRegion": "Korea Central",
    "physicalLocation": "Busan",
    "regionalDisplayName": "(Asia Pacific) Korea South",
    "name": "koreasouth",
    "availabilityZoneCount": 0,
    "restricted": false
  },
  {
    "displayName": "Mexico Central",
    "geography": "Mexico",
    "geographyGroup": "Mexico",
    "latitude": 20.588818,
    "longitude": -100.389888,
    "pairedRegion": null,
    "physicalLocation": "Querétaro State",
    "regionalDisplayName": "(Mexico) Mexico Central",
    "name": "mexicocentral",
    "availabilityZoneCount": 3,
    "restricted": false,
    "yearOpen": 2024
  },
  {
    "displayName": "New Zealand North",
    "geography": "New Zealand",
    "geographyGroup": "Asia Pacific",
    "latitude": -36.84853,
    "longitude": 174.76349,
    "pairedRegion": null,
    "physicalLocation": "Auckland",
    "regionalDisplayName": "(Asia Pacific) New Zealand North",
    "name": "newzealandnorth",
    "availabilityZoneCount": 3,
    "restricted": false,
    "yearOpen": 2024
  },
  {
    "displayName": "North Central US",
    "geography": "United States",
    "geographyGroup": "US",
    "latitude": 41.8819,
    "longitude": -87.6278,
    "pairedRegion": "South Central US",
    "physicalLocation": "Illinois",
    "regionalDisplayName": "(US) North Central US",
    "name": "northcentralus",
    "availabilityZoneCount": 3,
    "restricted": false,
    "yearOpen": 2009
  },
  {
    "displayName": "North Europe",
    "geography": "Europe",
    "geographyGroup": "Europe",
    "latitude": 53.3478,
    "longitude": -6.2597,
    "pairedRegion": "West Europe",
    "physicalLocation": "Ireland",
    "regionalDisplayName": "(Europe) North Europe",
    "name": "northeurope",
    "availabilityZoneCount": 3,
    "restricted": false,
    "yearOpen": 2009
  },
  {
    "displayName": "Norway East",
    "geography": "Norway",
    "geographyGroup": "Europe",
    "latitude": 59.913868,
    "longitude": 10.752245,
    "pairedRegion": "Norway West",
    "physicalLocation": "Norway",
    "regionalDisplayName": "(Europe) Norway East",
    "name": "norwayeast",
    "availabilityZoneCount": 3,
    "restricted": false,
    "yearOpen": 2019
  },
  {
    "displayName": "Norway West",
    "geography": "Norway",
    "geographyGroup": "Europe",
    "latitude": 58.969975,
    "longitude": 5.733107,
    "pairedRegion": "Norway East",
    "physicalLocation": "Norway",
    "regionalDisplayName": "(Europe) Norway West",
    "name": "norwaywest",
    "availabilityZoneCount": 0,
    "restricted": true
  },
  {
    "displayName": "Poland Central",
    "geography": "Poland",
    "geographyGroup": "Europe",
    "latitude": 52.23334,
    "longitude": 21.01666,
    "pairedRegion": null,
    "physicalLocation": "Warsaw",
    "regionalDisplayName": "(Europe) Poland Central",
    "name": "polandcentral",
    "availabilityZoneCount": 3,
    "restricted": false,
    "yearOpen": 2023
  },
  {
    "displayName": "Qatar Central",
    "geography": "Qatar",
    "geographyGroup": "Middle East",
    "latitude": 25.551462,
    "longitude": 51.439327,
    "pairedRegion": null,
    "physicalLocation": "Doha",
    "regionalDisplayName": "(Middle East) Qatar Central",
    "name": "qatarcentral",
    "availabilityZoneCount": 3,
    "restricted": false,
    "yearOpen": 2022
  },
  {
    "displayName": "South Africa North",
    "geography": "South Africa",
    "geographyGroup": "Africa",
    "latitude": -25.73134,
    "longitude": 28.21837,
    "pairedRegion": "South Africa West",
    "physicalLocation": "Johannesburg",
    "regionalDisplayName": "(Africa) South Africa North",
    "name": "southafricanorth",
    "availabilityZoneCount": 3,
    "restricted": false,
    "yearOpen": 2019
  },
  {
    "displayName": "South Africa West",
    "geography": "South Africa",
    "geographyGroup": "Africa",
    "latitude": -34.075691,
    "longitude": 18.843266,
    "pairedRegion": "South Africa North",
    "physicalLocation": "Cape Town",
    "regionalDisplayName": "(Africa) South Africa West",
    "name": "southafricawest",
    "availabilityZoneCount": 0,
    "restricted": true
  },
  {
    "displayName": "South Central US",
    "geography": "United States",
    "geographyGroup": "US",
    "latitude": 29.4167,
    "longitude": -98.5,
    "pairedRegion": "North Central US",
    "physicalLocation": "Texas",
    "regionalDisplayName": "(US) South Central US",
    "name": "southcentralus",
    "availabilityZoneCount": 3,
    "restricted": false,
    "yearOpen": 2008
  },
  {
    "displayName": "South India",
    "geography": "India",
    "geographyGroup": "Asia Pacific",
    "latitude": 12.9822,
    "longitude": 80.1636,
    "pairedRegion": "Central India",
    "physicalLocation": "Chennai",
    "regionalDisplayName": "(Asia Pacific) South India",
    "name": "southindia",
    "availabilityZoneCount": 0,
    "restricted": false,
    "yearOpen": 2015
  },
  {
    "displayName": "Southeast Asia",
    "geography": "Asia Pacific",
    "geographyGroup": "Asia Pacific",
    "latitude": 1.283,
    "longitude": 103.833,
    "pairedRegion": "East Asia",
    "physicalLocation": "Singapore",
    "regionalDisplayName": "(Asia Pacific) Southeast Asia",
    "name": "southeastasia",
    "availabilityZoneCount": 3,
    "restricted": false,
    "yearOpen": 2010
  },
  {
    "displayName": "Spain Central",
    "geography": "Spain",
    "geographyGroup": "Europe",
    "latitude": 40.4259,
    "longitude": 3.4209,
    "pairedRegion": null,
    "physicalLocation": "Madrid",
    "regionalDisplayName": "(Europe) Spain Central",
    "name": "spaincentral",
    "availabilityZoneCount": 3,
    "restricted": false,
    "yearOpen": 2024
  },
  {
    "displayName": "Sweden Central",
    "geography": "Sweden",
    "geographyGroup": "Europe",
    "latitude": 60.67488,
    "longitude": 17.14127,
    "pairedRegion": "Sweden South",
    "physicalLocation": "Gävle",
    "regionalDisplayName": "(Europe) Sweden Central",
    "name": "swedencentral",
    "availabilityZoneCount": 3,
    "restricted": false,
    "yearOpen": 2021
  },
  {
    "displayName": "Switzerland North",
    "geography": "Switzerland",
    "geographyGroup": "Europe",
    "latitude": 47.451542,
    "longitude": 8.564572,
    "pairedRegion": "Switzerland West",
    "physicalLocation": "Zurich",
    "regionalDisplayName": "(Europe) Switzerland North",
    "name": "switzerlandnorth",
    "availabilityZoneCount": 3,
    "restricted": false,
    "yearOpen": 2019
  },
  {
    "displayName": "Switzerland West",
    "geography": "Switzerland",
    "geographyGroup": "Europe",
    "latitude": 46.204391,
    "longitude": 6.143158,
    "pairedRegion": "Switzerland North",
    "physicalLocation": "Geneva",
    "regionalDisplayName": "(Europe) Switzerland West",
    "name": "switzerlandwest",
    "availabilityZoneCount": 0,
    "restricted": true
  },
  {
    "displayName": "UAE Central",
    "geography": "UAE",
    "geographyGroup": "Middle East",
    "latitude": 24.466667,
    "longitude": 54.366669,
    "pairedRegion": "UAE North",
    "physicalLocation": "Abu Dhabi",
    "regionalDisplayName": "(Middle East) UAE Central",
    "name": "uaecentral",
    "availabilityZoneCount": 0,
    "restricted": true
  },
  {
    "displayName": "UAE North",
    "geography": "UAE",
    "geographyGroup": "Middle East",
    "latitude": 25.266666,
    "longitude": 55.316666,
    "pairedRegion": "UAE Central",
    "physicalLocation": "Dubai",
    "regionalDisplayName": "(Middle East) UAE North",
    "name": "uaenorth",
    "availabilityZoneCount": 3,
    "restricted": false,
    "yearOpen": 2019
  },
  {
    "displayName": "UK South",
    "geography": "United Kingdom",
    "geographyGroup": "Europe",
    "latitude": 50.941,
    "longitude": -0.799,
    "pairedRegion": "UK West",
    "physicalLocation": "London",
    "regionalDisplayName": "(Europe) UK South",
    "name": "uksouth",
    "availabilityZoneCount": 3,
    "restricted": false,
    "yearOpen": 2016
  },
  {
    "displayName": "UK West",
    "geography": "United Kingdom",
    "geographyGroup": "Europe",
    "latitude": 53.427,
    "longitude": -3.084,
    "pairedRegion": "UK South",
    "physicalLocation": "Cardiff",
    "regionalDisplayName": "(Europe) UK West",
    "name": "ukwest",
    "availabilityZoneCount": 0,
    "restricted": false,
    "yearOpen": 2016
  },
  {
    "displayName": "West Central US",
    "geography": "United States",
    "geographyGroup": "US",
    "latitude": 40.89,
    "longitude": -110.234,
    "pairedRegion": "West US 2",
    "physicalLocation": "Wyoming",
    "regionalDisplayName": "(US) West Central US",
    "name": "westcentralus",
    "availabilityZoneCount": 0,
    "restricted": false,
    "yearOpen": 2016
  },
  {
    "displayName": "West Europe",
    "geography": "Europe",
    "geographyGroup": "Europe",
    "latitude": 52.3667,
    "longitude": 4.9,
    "pairedRegion": "North Europe",
    "physicalLocation": "Netherlands",
    "regionalDisplayName": "(Europe) West Europe",
    "name": "westeurope",
    "availabilityZoneCount": 3,
    "restricted": false,
    "yearOpen": 2010
  },
  {
    "displayName": "West India",
    "geography": "India",
    "geographyGroup": "Asia Pacific",
    "latitude": 19.088,
    "longitude": 72.868,
    "pairedRegion": "South India",
    "physicalLocation": "Mumbai",
    "regionalDisplayName": "(Asia Pacific) West India",
    "name": "westindia",
    "availabilityZoneCount": 0,
    "restricted": false
  },
  {
    "displayName": "West US",
    "geography": "United States",
    "geographyGroup": "US",
    "latitude": 37.783,
    "longitude": -122.417,
    "pairedRegion": "East US",
    "physicalLocation": "California",
    "regionalDisplayName": "(US) West US",
    "name": "westus",
    "availabilityZoneCount": 3,
    "restricted": false,
    "yearOpen": 2012
  },
  {
    "displayName": "West US 2",
    "geography": "United States",
    "geographyGroup": "US",
    "latitude": 47.233,
    "longitude": -119.852,
    "pairedRegion": "West Central US",
    "physicalLocation": "Washington",
    "regionalDisplayName": "(US) West US 2",
    "name": "westus2",
    "availabilityZoneCount": 3,
    "restricted": false,
    "yearOpen": 2007
  },
  {
    "displayName": "West US 3",
    "geography": "United States",
    "geographyGroup": "US",
    "latitude": 33.448376,
    "longitude": -112.074036,
    "pairedRegion": "East US",
    "physicalLocation": "Phoenix",
    "regionalDisplayName": "(US) West US 3",
    "name": "westus3",
    "availabilityZoneCount": 3,
    "restricted": false,
    "yearOpen": 2021
  }
]
